[
  {
    "name": "France",
    "image": "assets/images/france.jpg",
    "description": "France is famed for its rich culture, cuisine, art, and historical landmarks, making it one of the world's top travel destinations.",
    "cities": [
      {
        "name": "Paris",
        "image": "assets/images/paris.jpg",
        "description": "The romantic capital, known for the Eiffel Tower, art, fashion, and world-class museums.",
        "attractions": [
          {
            "name": "Eiffel Tower",
            "image": "assets/images/eiffel_tower.jpg",
            "description": "Iconic tower in Paris.",
            "opening_hours": "9 AM - 11 PM",
            "price": 26.0,
            "lat": 48.8584,
            "lng": 2.2945
          },
          {
            "name": "Louvre Museum",
            "image": "assets/images/louvre.jpg",
            "description": "World's largest art museum.",
            "opening_hours": "9 AM - 6 PM",
            "price": 17.0,
            "lat": 48.8606,
            "lng": 2.3376
          }
        ]
      },
      {
        "name": "Nice",
        "image": "assets/images/nice.jpg",
        "description": "A vibrant city on the French Riviera, famous for its beaches, art, and Mediterranean views.",
        "attractions": [
          {
            "name": "Promenade des Anglais",
            "image": "assets/images/promenade.jpeg",
            "description": "Beautiful walkway along the Mediterranean Sea.",
            "opening_hours": "Open 24 hours",
            "price": 0.0,
            "lat": 43.6959,
            "lng": 7.2655
          },
          {
            "name": "Castle Hill",
            "image": "assets/images/castle_hill.jpg",
            "description": "Park with panoramic city views.",
            "opening_hours": "8 AM - 8 PM",
            "price": 0.0,
            "lat": 43.6955,
            "lng": 7.2796
          }
        ]
      }
    ]
  },
  {
    "name": "Italy",
    "image": "assets/images/italy.jpg",
    "description": "Italy is renowned for its rich history, ancient ruins, art, delicious cuisine, and stunning landscapes.",
    "cities": [
      {
        "name": "Rome",
        "image": "assets/images/rome.jpg",
        "description": "Italy's capital, filled with ancient monuments, Renaissance art, and vibrant street life.",
        "attractions": [
          {
            "name": "Colosseum",
            "image": "assets/images/colosseum.jpg",
            "description": "Ancient Roman gladiatorial arena.",
            "opening_hours": "8:30 AM - 7 PM",
            "price": 18.0,
            "lat": 41.8902,
            "lng": 12.4922
          },
          {
            "name": "Trevi Fountain",
            "image": "assets/images/trevi.jpg",
            "description": "Famous Baroque fountain.",
            "opening_hours": "Open 24 hours",
            "price": 0.0,
            "lat": 41.9009,
            "lng": 12.4833
          }
        ]
      },
      {
        "name": "Venice",
        "image": "assets/images/venice.jpg",
        "description": "Unique city of canals and bridges, famous for its romantic gondola rides and historic architecture.",
        "attractions": [
          {
            "name": "Grand Canal",
            "image": "assets/images/grand_canal.jpg",
            "description": "Main waterway of Venice.",
            "opening_hours": "Open 24 hours",
            "price": 0.0,
            "lat": 45.4372,
            "lng": 12.3346
          },
          {
            "name": "St. Mark's Basilica",
            "image": "assets/images/st_marks.jpeg",
            "description": "Famous cathedral with mosaics.",
            "opening_hours": "9:30 AM - 5 PM",
            "price": 3.0,
            "lat": 45.4341,
            "lng": 12.3397
          }
        ]
      }
    ]
  },
  {
    "name": "Japan",
    "image": "assets/images/japan.jpg",
    "description": "Japan combines traditional culture and modern innovation, featuring cherry blossoms, temples, and advanced cities.",
    "cities": [
      {
        "name": "Tokyo",
        "image": "assets/images/tokyo.jpg",
        "description": "A bustling metropolis blending ultramodern skyscrapers with historic temples and gardens.",
        "attractions": [
          {
            "name": "Tokyo Tower",
            "image": "assets/images/tokyo_tower.jpg",
            "description": "Landmark observation tower.",
            "opening_hours": "9 AM - 11 PM",
            "price": 10.0,
            "lat": 35.6586,
            "lng": 139.7454
          },
          {
            "name": "Meiji Shrine",
            "image": "assets/images/meiji_shrine.jpg",
            "description": "Shinto shrine with beautiful grounds.",
            "opening_hours": "6 AM - 4 PM",
            "price": 0.0,
            "lat": 35.6764,
            "lng": 139.6993
          }
        ]
      },
      {
        "name": "Kyoto",
        "image": "assets/images/kyoto.jpg",
        "description": "The heart of Japan's traditional culture, known for temples, shrines, and beautiful gardens.",
        "attractions": [
          {
            "name": "Fushimi Inari Shrine",
            "image": "assets/images/fushimi_inari.jpg",
            "description": "Famous for thousands of torii gates.",
            "opening_hours": "Open 24 hours",
            "price": 0.0,
            "lat": 34.9671,
            "lng": 135.7727
          },
          {
            "name": "Kinkaku-ji",
            "image": "assets/images/kinkakuji.jpg",
            "description": "Golden Pavilion Buddhist temple.",
            "opening_hours": "9 AM - 5 PM",
            "price": 4.0,
            "lat": 35.0394,
            "lng": 135.7292
          }
        ]
      }
    ]
  },
  {
    "name": "United States",
    "image": "assets/images/usa.jpg",
    "description": "The USA is known for its diverse landscapes, cosmopolitan cities, and iconic landmarks spanning coast to coast.",
    "cities": [
      {
        "name": "New York",
        "image": "assets/images/new_york.jpg",
        "description": "The city that never sleeps, famous for its skyline, culture, and diversity.",
        "attractions": [
          {
            "name": "Statue of Liberty",
            "image": "assets/images/statue_of_liberty.jpg",
            "description": "Historic national monument.",
            "opening_hours": "8:30 AM - 4 PM",
            "price": 23.5,
            "lat": 40.6892,
            "lng": -74.0445
          },
          {
            "name": "Central Park",
            "image": "assets/images/central_park.jpeg",
            "description": "Urban park in Manhattan.",
            "opening_hours": "6 AM - 1 AM",
            "price": 0.0,
            "lat": 40.7829,
            "lng": -73.9654
          }
        ]
      },
      {
        "name": "San Francisco",
        "image": "assets/images/san_francisco.jpg",
        "description": "A scenic city known for the Golden Gate Bridge, steep hills, and eclectic neighborhoods.",
        "attractions": [
          {
            "name": "Golden Gate Bridge",
            "image": "assets/images/golden_gate.jpg",
            "description": "Famous red suspension bridge.",
            "opening_hours": "Open 24 hours",
            "price": 0.0,
            "lat": 37.8199,
            "lng": -122.4783
          },
          {
            "name": "Alcatraz Island",
            "image": "assets/images/alcatraz.jpg",
            "description": "Historic former prison on an island.",
            "opening_hours": "9 AM - 6:30 PM",
            "price": 39.9,
            "lat": 37.8267,
            "lng": -122.4230
          }
        ]
      }
    ]
  },
  {
    "name": "India",
    "image": "assets/images/india.jpg",
    "description": "India is a land of vibrant cultures, ancient history, colorful festivals, and a vast array of landscapes.",
    "cities": [
      {
        "name": "Bangalore",
        "image": "assets/images/bangalore.jpg",
        "description": "India's garden city and tech hub, known for its parks, cafes, and pleasant climate.",
        "attractions": [
          {
            "name": "Lalbagh Botanical Garden",
            "image": "assets/images/lalbagh.jpeg",
            "description": "Historic botanical garden with glasshouse and exotic plants.",
            "opening_hours": "6 AM - 7 PM",
            "price": 20.0,
            "lat": 12.9507,
            "lng": 77.5848
          },
          {
            "name": "Bangalore Palace",
            "image": "assets/images/bangalore_palace.jpg",
            "description": "Royal palace with Tudor-style architecture.",
            "opening_hours": "10 AM - 5:30 PM",
            "price": 240.0,
            "lat": 12.9987,
            "lng": 77.5922
          }
        ]
      },
      {
        "name": "Delhi",
        "image": "assets/images/delhi.jpg",
        "description": "India's capital, a city of contrasts with ancient monuments and a vibrant modern life.",
        "attractions": [
          {
            "name": "Red Fort",
            "image": "assets/images/red_fort.jpeg",
            "description": "Historic fort and UNESCO site.",
            "opening_hours": "9:30 AM - 4:30 PM",
            "price": 35.0,
            "lat": 28.6562,
            "lng": 77.2410
          },
          {
            "name": "India Gate",
            "image": "assets/images/india_gate.jpg",
            "description": "War memorial and prominent landmark.",
            "opening_hours": "Open 24 hours",
            "price": 0.0,
            "lat": 28.6129,
            "lng": 77.2295
          }
        ]
      },
      {
        "name": "Agra",
        "image": "assets/images/agra.jpg",
        "description": "Home to the magnificent Taj Mahal and other Mughal-era wonders.",
        "attractions": [
          {
            "name": "Taj Mahal",
            "image": "assets/images/taj_mahal.jpg",
            "description": "White marble mausoleum and iconic landmark.",
            "opening_hours": "6 AM - 7 PM",
            "price": 50.0,
            "lat": 27.1751,
            "lng": 78.0421
          },
          {
            "name": "Agra Fort",
            "image": "assets/images/agra_fort.jpg",
            "description": "UNESCO World Heritage Site and historic fort.",
            "opening_hours": "6 AM - 6 PM",
            "price": 40.0,
            "lat": 27.1795,
            "lng": 78.0211
          }
        ]
      },
      {
        "name": "Mumbai",
        "image": "assets/images/mumbai.jpg",
        "description": "A bustling metropolis, financial capital, and home to Bollywood.",
        "attractions": [
          {
            "name": "Gateway of India",
            "image": "assets/images/gateway_of_india.jpeg",
            "description": "Monumental arch facing the Arabian Sea.",
            "opening_hours": "Open 24 hours",
            "price": 0.0,
            "lat": 18.9219,
            "lng": 72.8347
          },
          {
            "name": "Marine Drive",
            "image": "assets/images/marine_drive.jpg",
            "description": "Scenic seaside boulevard.",
            "opening_hours": "Open 24 hours",
            "price": 0.0,
            "lat": 18.9430,
            "lng": 72.8238
          }
        ]
      }
    ]
  }
]